{
  "race-across-paris": [
    {
      "id": "rac-1",
      "type": "depart",
      "label": "Départ — Hippodrome Chantilly",
      "desc": "Aire de départ · 18h00",
      "km": 0,
      "lat": 49.19389,
      "lng": 2.465
    },
    {
      "id": "rac-2",
      "type": "ravito",
      "label": "Ravito — Senlis",
      "desc": "Place Henri-IV · km 22",
      "km": 12.2,
      "lat": 49.275,
      "lng": 2.36
    },
    {
      "id": "rac-3",
      "type": "secteur",
      "label": "Forêt de Halatte",
      "desc": "Sous-bois sur 6 km",
      "km": 28.3,
      "lat": 49.385,
      "lng": 2.5
    },
    {
      "id": "rac-4",
      "type": "ravito",
      "label": "Ravito — Compiègne",
      "desc": "Place HV · km 65",
      "km": 51.5,
      "lat": 49.41667,
      "lng": 2.81667
    },
    {
      "id": "rac-5",
      "type": "secteur",
      "label": "Forêt de Compiègne",
      "desc": "Traversée intégrale",
      "km": 72.3,
      "lat": 49.45,
      "lng": 3.1
    },
    {
      "id": "rac-6",
      "type": "ravito",
      "label": "Ravito — Soissons",
      "desc": "Place Fernand-Marquigny · km 110",
      "km": 88.8,
      "lat": 49.41,
      "lng": 3.32
    },
    {
      "id": "rac-7",
      "type": "secteur",
      "label": "Côte de Crépy",
      "desc": "1,8 km · 4,2 %",
      "km": 117.3,
      "lat": 49.2,
      "lng": 3.1
    },
    {
      "id": "rac-8",
      "type": "ravito",
      "label": "Ravito — Crépy-en-Valois",
      "desc": "km 165",
      "km": 139.8,
      "lat": 49.15,
      "lng": 2.8
    },
    {
      "id": "rac-9",
      "type": "arrivee",
      "label": "Arrivée — Hippodrome",
      "desc": "Retour Chantilly · feu à l'aube",
      "km": 164.7,
      "lat": 49.19389,
      "lng": 2.465
    }
  ],
  "roc-d-opale": [
    {
      "id": "roc-1",
      "type": "depart",
      "label": "Départ — Calais",
      "desc": "Place d'Armes · 8h00",
      "km": 0,
      "lat": 50.9513,
      "lng": 1.8587
    },
    {
      "id": "roc-2",
      "type": "secteur",
      "label": "Cap Blanc-Nez",
      "desc": "2 km · 6,2 % · vue mer",
      "km": 20.8,
      "lat": 50.8667,
      "lng": 1.5944
    },
    {
      "id": "roc-3",
      "type": "ravito",
      "label": "Ravito — Wissant",
      "desc": "Front de mer · km 22",
      "km": 22.9,
      "lat": 50.85,
      "lng": 1.58
    },
    {
      "id": "roc-4",
      "type": "secteur",
      "label": "Cap Gris-Nez",
      "desc": "900 m · 4,8 %",
      "km": 26.5,
      "lat": 50.87,
      "lng": 1.62
    },
    {
      "id": "roc-5",
      "type": "ravito",
      "label": "Ravito — Wimereux",
      "desc": "Esplanade · km 48",
      "km": 41.4,
      "lat": 50.7613,
      "lng": 1.6161
    },
    {
      "id": "roc-6",
      "type": "secteur",
      "label": "Côte de Wimereux",
      "desc": "900 m · 6,1 %",
      "km": 45.5,
      "lat": 50.725,
      "lng": 1.62
    },
    {
      "id": "roc-7",
      "type": "ravito",
      "label": "Ravito — Guînes",
      "desc": "Place Foch · km 80",
      "km": 71.6,
      "lat": 50.8333,
      "lng": 1.95
    },
    {
      "id": "roc-8",
      "type": "arrivee",
      "label": "Arrivée — Calais",
      "desc": "Retour Place d'Armes",
      "km": 88,
      "lat": 50.9513,
      "lng": 1.8587
    }
  ],
  "callys-gravel": [
    {
      "id": "cal-1",
      "type": "depart",
      "label": "Départ — Sangatte",
      "desc": "Plage · 7h30",
      "km": 0,
      "lat": 50.9436,
      "lng": 1.7481
    },
    {
      "id": "cal-2",
      "type": "secteur",
      "label": "Sentier des Falaises",
      "desc": "Sentier littoral · 4 km",
      "km": 3,
      "lat": 50.925,
      "lng": 1.78
    },
    {
      "id": "cal-3",
      "type": "secteur",
      "label": "Mont du Cap Blanc-Nez",
      "desc": "1,4 km · 7,1 % gravel",
      "km": 17.6,
      "lat": 50.8667,
      "lng": 1.5944
    },
    {
      "id": "cal-4",
      "type": "ravito",
      "label": "Ravito — Wissant",
      "desc": "km 22 · barres + eau",
      "km": 19.7,
      "lat": 50.85,
      "lng": 1.58
    },
    {
      "id": "cal-5",
      "type": "secteur",
      "label": "Forêt de Guînes",
      "desc": "Traverse forestière · 6 km",
      "km": 25.4,
      "lat": 50.86,
      "lng": 1.66
    },
    {
      "id": "cal-6",
      "type": "ravito",
      "label": "Ravito — Marquise",
      "desc": "km 50",
      "km": 38.6,
      "lat": 50.91,
      "lng": 1.83
    },
    {
      "id": "cal-7",
      "type": "danger",
      "label": "Danger — Descente sablonneuse",
      "desc": "Sortie de forêt",
      "km": 42.7,
      "lat": 50.93,
      "lng": 1.78
    },
    {
      "id": "cal-8",
      "type": "arrivee",
      "label": "Arrivée — Sangatte",
      "desc": "Retour plage",
      "km": 45.4,
      "lat": 50.9436,
      "lng": 1.7481
    }
  ],
  "rives-authie": [
    {
      "id": "riv-1",
      "type": "depart",
      "label": "Départ — Berck-sur-Mer",
      "desc": "Esplanade · 8h00",
      "km": 0,
      "lat": 50.405,
      "lng": 1.5581
    },
    {
      "id": "riv-2",
      "type": "ravito",
      "label": "Ravito — Rang-du-Fliers",
      "desc": "km 12",
      "km": 6.7,
      "lat": 50.39,
      "lng": 1.65
    },
    {
      "id": "riv-3",
      "type": "secteur",
      "label": "Vallée de l'Authie",
      "desc": "Bord de rivière · 8 km",
      "km": 17.5,
      "lat": 50.34,
      "lng": 1.78
    },
    {
      "id": "riv-4",
      "type": "ravito",
      "label": "Ravito — Auxi-le-Château",
      "desc": "Place du marché · km 38",
      "km": 28.7,
      "lat": 50.3478,
      "lng": 1.9378
    },
    {
      "id": "riv-5",
      "type": "secteur",
      "label": "Côte d'Auxi",
      "desc": "1,2 km · 4,8 %",
      "km": 36.9,
      "lat": 50.3,
      "lng": 1.85
    },
    {
      "id": "riv-6",
      "type": "ravito",
      "label": "Ravito — Maintenay",
      "desc": "km 65",
      "km": 47.8,
      "lat": 50.32,
      "lng": 1.7
    },
    {
      "id": "riv-7",
      "type": "arrivee",
      "label": "Arrivée — Berck",
      "desc": "Retour esplanade",
      "km": 62,
      "lat": 50.405,
      "lng": 1.5581
    }
  ],
  "ardresienne": [
    {
      "id": "ard-1",
      "type": "depart",
      "label": "Départ — Ardres",
      "desc": "Place du Centre · 9h00",
      "km": 0,
      "lat": 50.8563,
      "lng": 1.975
    },
    {
      "id": "ard-2",
      "type": "ravito",
      "label": "Ravito — Saint-Omer",
      "desc": "Place Foch · km 18",
      "km": 11.8,
      "lat": 50.8006,
      "lng": 2.1094
    },
    {
      "id": "ard-3",
      "type": "secteur",
      "label": "Côte de Lumbres",
      "desc": "1,6 km · 5,3 %",
      "km": 16.6,
      "lat": 50.83,
      "lng": 2.16
    },
    {
      "id": "ard-4",
      "type": "ravito",
      "label": "Ravito — Tournehem",
      "desc": "km 42",
      "km": 25.5,
      "lat": 50.87,
      "lng": 2.05
    },
    {
      "id": "ard-5",
      "type": "secteur",
      "label": "Marais de l'Aa",
      "desc": "Bordure de canal · 3 km",
      "km": 37.9,
      "lat": 50.88,
      "lng": 1.88
    },
    {
      "id": "ard-6",
      "type": "arrivee",
      "label": "Arrivée — Ardres",
      "desc": "Retour Place du Centre",
      "km": 45.1,
      "lat": 50.8563,
      "lng": 1.975
    }
  ],
  "fete-velo-7-vallees": [
    {
      "id": "fet-1",
      "type": "depart",
      "label": "Départ — Beaurainville",
      "desc": "Place Verte · 8h30",
      "km": 0,
      "lat": 50.4383,
      "lng": 1.8961
    },
    {
      "id": "fet-2",
      "type": "ravito",
      "label": "Ravito — Hesdin",
      "desc": "Grand Place · km 18",
      "km": 12.4,
      "lat": 50.41,
      "lng": 2.05
    },
    {
      "id": "fet-3",
      "type": "secteur",
      "label": "Côte de Sains-lès-Fressin",
      "desc": "1,8 km · 5,8 %",
      "km": 17.3,
      "lat": 50.37,
      "lng": 2.08
    },
    {
      "id": "fet-4",
      "type": "secteur",
      "label": "Vallée de la Canche",
      "desc": "Bord de rivière · 5 km",
      "km": 24.1,
      "lat": 50.43,
      "lng": 2.1
    },
    {
      "id": "fet-5",
      "type": "ravito",
      "label": "Ravito — Auchy-lès-Hesdin",
      "desc": "km 48",
      "km": 30.3,
      "lat": 50.47,
      "lng": 2.04
    },
    {
      "id": "fet-6",
      "type": "arrivee",
      "label": "Arrivée — Beaurainville",
      "desc": "Retour Place Verte",
      "km": 41.3,
      "lat": 50.4383,
      "lng": 1.8961
    }
  ],
  "cap-gris-nez": [
    {
      "id": "cap-1",
      "type": "depart",
      "label": "Départ — Saint-Omer",
      "desc": "Place Foch · 7h00",
      "km": 0,
      "lat": 50.75,
      "lng": 2.25
    },
    {
      "id": "cap-2",
      "type": "ravito",
      "label": "Ravito — Guînes",
      "desc": "km 28",
      "km": 22.9,
      "lat": 50.83,
      "lng": 1.95
    },
    {
      "id": "cap-3",
      "type": "secteur",
      "label": "Cap Gris-Nez",
      "desc": "Le point culminant · vue Angleterre",
      "km": 58.1,
      "lat": 50.8667,
      "lng": 1.5944
    },
    {
      "id": "cap-4",
      "type": "ravito",
      "label": "Ravito — Wissant",
      "desc": "Plage · km 70",
      "km": 60.3,
      "lat": 50.85,
      "lng": 1.58
    },
    {
      "id": "cap-5",
      "type": "secteur",
      "label": "Côte d'Audinghen",
      "desc": "1,4 km · 5,2 %",
      "km": 69.5,
      "lat": 50.78,
      "lng": 1.65
    },
    {
      "id": "cap-6",
      "type": "ravito",
      "label": "Ravito — Boulogne",
      "desc": "Place Dalton · km 100",
      "km": 82.7,
      "lat": 50.6667,
      "lng": 1.65
    },
    {
      "id": "cap-7",
      "type": "ravito",
      "label": "Ravito — Lumbres",
      "desc": "km 130",
      "km": 111.6,
      "lat": 50.72,
      "lng": 2.05
    },
    {
      "id": "cap-8",
      "type": "arrivee",
      "label": "Arrivée — Saint-Omer",
      "desc": "Retour Place Foch",
      "km": 126,
      "lat": 50.75,
      "lng": 2.25
    }
  ],
  "oree-du-bois": [
    {
      "id": "ore-1",
      "type": "depart",
      "label": "Départ — Rang-du-Fliers",
      "desc": "Salle des Fêtes · 8h00",
      "km": 0,
      "lat": 50.39,
      "lng": 1.65
    },
    {
      "id": "ore-2",
      "type": "secteur",
      "label": "Forêt de Crécy",
      "desc": "Sentier 6 km",
      "km": 11,
      "lat": 50.43,
      "lng": 1.79
    },
    {
      "id": "ore-3",
      "type": "ravito",
      "label": "Ravito — Rue",
      "desc": "Place du marché · km 28",
      "km": 17.3,
      "lat": 50.4563,
      "lng": 1.8681
    },
    {
      "id": "ore-4",
      "type": "secteur",
      "label": "Côte de Forest",
      "desc": "1,1 km · 4,8 %",
      "km": 24.4,
      "lat": 50.42,
      "lng": 1.95
    },
    {
      "id": "ore-5",
      "type": "ravito",
      "label": "Ravito — Auxi-le-Château",
      "desc": "km 56",
      "km": 32.4,
      "lat": 50.3478,
      "lng": 1.9378
    },
    {
      "id": "ore-6",
      "type": "arrivee",
      "label": "Arrivée — Rang-du-Fliers",
      "desc": "Retour salle des fêtes",
      "km": 57.6,
      "lat": 50.39,
      "lng": 1.65
    }
  ],
  "rando-nacree": [
    {
      "id": "ran-1",
      "type": "depart",
      "label": "Départ — Esches",
      "desc": "Mairie · 9h00",
      "km": 0,
      "lat": 49.2167,
      "lng": 2.1333
    },
    {
      "id": "ran-2",
      "type": "secteur",
      "label": "Forêt de Carnelle",
      "desc": "Sous-bois · 4 km",
      "km": 5.2,
      "lat": 49.2,
      "lng": 2.2
    },
    {
      "id": "ran-3",
      "type": "ravito",
      "label": "Ravito — Méru",
      "desc": "Centre · km 18",
      "km": 12.8,
      "lat": 49.18,
      "lng": 2.1
    },
    {
      "id": "ran-4",
      "type": "secteur",
      "label": "Côte de Chambly",
      "desc": "900 m · 4,5 %",
      "km": 23.5,
      "lat": 49.25,
      "lng": 2.1
    },
    {
      "id": "ran-5",
      "type": "arrivee",
      "label": "Arrivée — Esches",
      "desc": "Retour Mairie",
      "km": 29.6,
      "lat": 49.2167,
      "lng": 2.1333
    }
  ],
  "4-jours-dunkerque": [
    {
      "id": "4-1",
      "type": "depart",
      "label": "Départ — Dunkerque",
      "desc": "Place Jean-Bart · 14h00",
      "km": 0,
      "lat": 51.0422,
      "lng": 2.377
    },
    {
      "id": "4-2",
      "type": "ravito",
      "label": "Ravito — Bourbourg",
      "desc": "km 22",
      "km": 15.9,
      "lat": 50.95,
      "lng": 2.55
    },
    {
      "id": "4-3",
      "type": "secteur",
      "label": "Côte de Watten",
      "desc": "1,2 km · 5,8 %",
      "km": 32.8,
      "lat": 50.87,
      "lng": 2.43
    },
    {
      "id": "4-4",
      "type": "ravito",
      "label": "Ravito — Cassel",
      "desc": "km 65",
      "km": 42.4,
      "lat": 50.83,
      "lng": 2.55
    },
    {
      "id": "4-5",
      "type": "secteur",
      "label": "Mont des Cats",
      "desc": "1,1 km · 7,2 %",
      "km": 55.6,
      "lat": 50.78,
      "lng": 2.72
    },
    {
      "id": "4-6",
      "type": "ravito",
      "label": "Ravito — Bergues",
      "desc": "km 110",
      "km": 80.5,
      "lat": 50.95,
      "lng": 2.65
    },
    {
      "id": "4-7",
      "type": "arrivee",
      "label": "Arrivée — Dunkerque",
      "desc": "Sprint Digue de Mer",
      "km": 102.1,
      "lat": 51.0422,
      "lng": 2.377
    }
  ]
}